
$GPGGA,110605.00,3212.49586,N,11440.61910,E,1,07,1.15,42.9,M,-10.5,M,,*40
$GPGSA,A,3,05,19,02,09,17,12,06,,,,,,3.28,1.15,3.07*0F
$GPGSV,4,1,13,01,,,23,02,56,333,29,04,08,040,20,05,49,238,33*4C
$GPGSV,4,2,13,06,54,038,28,08,,,21,09,31,066,25,12,35,277,28*41
$GPGSV,4,3,13,13,01,185,,17,31,134,27,19,51,128,28,24,,,23*4E
$GPGSV,4,4,13,25,18,304,25*45
$GPGLL,3212.49586,N,11440.61910,E,110605.00,A,A*61
$GPRMC,110606.00,A,3212.49578,N,11440.61909,E,0.076,,130520,,,A*76
$GPVTG,,T,,M,0.076,N,0.141,K,A*26
$GPGGA,110606.00,3212.49578,N,11440.61909,E,1,07,1.15,42.4,M,-10.5,M,,*47
$GPGSA,A,3,05,19,02,09,17,12,06,,,,,,3.28,1.15,3.07*0F
$GPGSV,4,1,13,01,,,22,02,56,333,31,04,08,040,,05,49,238,34*41
$GPGSV,4,2,13,06,54,038,32,08,,,22,09,31,066,25,12,35,277,32*42
$GPGSV,4,3,13,13,01,185,26,17,31,134,26,19,51,128,28,24,,,22*4A
$GPGSV,4,4,13,25,18,304,25*45
$GPGLL,3212.49578,N,11440.61909,E,110606.00,A,A*6B
$GPRMC,110607.00,A,3212.49575,N,11440.61911,E,0.065,,130520,,,A*71
$GPVTG,,T,,M,0.065,N,0.121,K,A*22
$GPGGA,110607.00,3212.49575,N,11440.61911,E,1,07,1.15,42.2,M,-10.5,M,,*44
$GPGSA,A,3,05,19,02,09,17,12,06,,,,,,3.28,1.15,3.07*0F
$GPGSV,4,1,13,01,,,22,02,56,333,28,04,08,040,17,05,49,238,33*48
$GPGSV,4,2,13,06,54,038,30,08,,,21,09,31,066,26,12,35,277,37*45
$GPGSV,4,3,13,13,01,185,,17,31,134,25,19,51,128,27,24,,,21*41
$GPGSV,4,4,13,25,18,304,25*45
$GPGLL,3212.49575,N,11440.61911,E,110607.00,A,A*6E
$GPRMC,110608.00,A,3212.49564,N,11440.61925,E,0.108,,130520,,,A*73
$GPVTG,,T,,M,0.108,N,0.200,K,A*28
$GPGGA,110608.00,3212.49564,N,11440.61925,E,1,07,1.15,42.4,M,-10.5,M,,*4A
$GPGSA,A,3,05,19,02,09,17,12,06,,,,,,3.28,1.15,3.07*0F
$GPGSV,4,1,13,01,,,21,02,56,333,28,04,08,040,,05,49,238,31*4F
$GPGSV,4,2,13,06,54,038,30,08,,,22,09,31,066,27,12,35,277,36*46
$GPGSV,4,3,13,13,01,185,22,17,31,134,26,19,51,128,26,24,,,21*43
$GPGSV,4,4,13,25,18,304,25*45
$GPGLL,3212.49564,N,11440.61925,E,110608.00,A,A*66
$GPRMC,110609.00,A,3212.49554,N,11440.61932,E,0.155,,130520,,,A*7F
$GPVTG,,T,,M,0.155,N,0.287,K,A*2F
$GPGGA,110609.00,3212.49554,N,11440.61932,E,1,07,1.15,42.2,M,-10.5,M,,*48
$GPGSA,A,3,05,19,02,09,17,12,06,,,,,,3.28,1.15,3.07*0F
$GPGSV,4,1,13,01,,,21,02,56,333,27,04,08,040,19,05,49,238,28*40
$GPGSV,4,2,13,06,54,038,30,08,,,21,09,31,066,27,12,35,277,34*47
$GPGSV,4,3,13,13,01,185,,17,31,134,25,19,51,128,25,24,,,21*43
$GPGSV,4,4,13,25,18,304,24*44
$GPGLL,3212.49554,N,11440.61932,E,110609.00,A,A*62
$GPRMC,110610.00,A,3212.49550,N,11440.61938,E,0.080,,130520,,,A*70
$GPVTG,,T,,M,0.080,N,0.149,K,A*27
$GPGGA,110610.00,3212.49550,N,11440.61938,E,1,07,1.15,42.2,M,-10.5,M,,*4E
$GPGSA,A,3,05,19,02,09,17,12,06,,,,,,3.28,1.15,3.07*0F
$GPGSV,4,1,13,01,,,21,02,56,333,27,04,08,040,,05,49,238,28*48
$GPGSV,4,2,13,06,54,038,30,08,,,21,09,31,066,26,12,35,277,33*41
$GPGSV,4,3,13,13,01,185,,17,31,134,25,19,51,128,25,24,,,21*43
$GPGSV,4,4,13,25,18,304,24*44
$GPGLL,3212.49550,N,11440.61938,E,110610.00,A,A*64
$GPRMC,110611.00,A,3212.49544,N,11440.61938,E,0.013,,130520,,,A*7E
$GPVTG,,T,,M,0.013,N,0.024,K,A*27
$GPGGA,110611.00,3212.49544,N,11440.61938,E,1,07,1.15,42.0,M,-10.5,M,,*48
$GPGSA,A,3,05,19,02,09,17,12,06,,,,,,3.28,1.15,3.07*0F
$GPGSV,4,1,13,01,,,18,02,56,333,27,04,08,040,20,05,49,238,28*40
$GPGSV,4,2,13,06,54,038,31,08,,,19,09,31,066,27,12,35,277,32*4B
$GPGSV,4,3,13,13,01,185,,17,31,134,26,19,51,128,26,24,,,19*48
$GPGSV,4,4,13,25,18,304,25*45
$GPGLL,3212.49544,N,11440.61938,E,110611.00,A,A*60
$GPRMC,110612.00,A,3212.49533,N,11440.61938,E,0.029,,130520,,,A*74
$GPVTG,,T,,M,0.029,N,0.053,K,A*2E
$GPGGA,110612.00,3212.49533,N,11440.61938,E,1,07,1.15,41.6,M,-10.5,M,,*4E
$GPGSA,A,3,05,19,02,09,17,12,06,,,,,,3.28,1.15,3.07*0F
$GPGSV,4,1,13,01,,,15,02,56,333,27,04,08,040,17,05,49,238,28*49
$GPGSV,4,2,13,06,54,038,31,08,,,16,09,31,066,27,12,35,277,32*44
$GPGSV,4,3,13,13,01,185,,17,31,134,26,19,51,128,26,24,,,16*47
$GPGSV,4,4,13,25,18,304,25*45
$GPGLL,3212.49533,N,11440.61938,E,110612.00,A,A*63
$GPRMC,110613.00,A,3212.49527,N,11440.61941,E,0.081,,130520,,,A*7C
$GPVTG,,T,,M,0.081,N,0.151,K,A*2F
$GPGGA,110613.00,3212.49527,N,11440.61941,E,1,07,1.15,41.4,M,-10.5,M,,*46
$GPGSA,A,3,05,19,02,09,17,12,06,,,,,,3.28,1.15,3.07*0F
$GPGSV,4,1,13,01,,,12,02,56,333,27,04,08,040,24,05,49,238,28*4E
$GPGSV,4,2,13,06,54,038,27,08,,,16,09,31,066,27,12,35,277,29*49
$GPGSV,4,3,13,13,01,185,,17,31,134,26,19,51,128,26,24,,,14*45
$GPGSV,4,4,13,25,18,304,25*45
$GPGLL,3212.49527,N,11440.61941,E,110613.00,A,A*69
.61954,E,0.208,,130520,,,A*7C
$GPVTG,,T,,M,0.208,N,0.386,K,A*24
$GPGGA,110624.00,3212.49416,N,11440.61954,E,1,07,1.15,38.2,M,-10.5,M,,*4D
$GPGSA,A,3,05,19,02,09,17,12,06,,,,,,3.27,1.15,3.06*01
$GPGSV,4,1,15,02,56,333,27,04,08,040,20,05,49,238,29,06,54,038,28*79
$GPGSV,4,2,15,09,31,066,22,12,35,277,34,13,01,185,,15,,,20*49
$GPGSV,4,3,15,17,31,134,24,19,51,128,27,24,,,15,25,18,304,22*47
$GPGSV,4,4,15,42,44,138,27,47,14,104,27,50,40,132,27*46
$GPGLL,3212.49416,N,11440.61954,E,110624.00,A,A*6A
$GPRMC,110625.00,A,3212.49414,N,11440.61966,E,0.079,,130520,,,A*7A
$GPVTG,,T,,M,0.079,N,0.146,K,A*2E
$GPGGA,110625.00,3212.49414,N,11440.61966,E,1,07,1.15,38.4,M,-10.5,M,,*49
$GPGSA,A,3,05,19,02,09,17,12,06,,,,,,3.27,1.15,3.06*01
$GPGSV,4,1,15,01,,,28,02,56,333,27,04,08,040,23,05,49,238,30*4F
$GPGSV,4,2,15,06,54,038,30,09,31,066,24,12,35,277,37,13,01,185,*75
$GPGSV,4,3,15,15,,,26,17,31,134,25,19,51,128,27,24,,,25*7C
$GPGSV,4,4,15,25,18,304,21,47,14,104,27,50,40,132,26*44
$GPGLL,3212.49414,N,11440.61966,E,110625.00,A,A*68
$GPRMC,110626.00,A,3212.49408,N,11440.61960,E,0.129,,130520,,,A*76
$GPVTG,,T,,M,0.129,N,0.239,K,A*21
$GPGGA,110626.00,3212.49408,N,11440.61960,E,1,07,1.15,38.0,M,-10.5,M,,*45
$GPGSA,A,3,05,19,02,09,17,12,06,,,,,,3.27,1.15,3.06*01
$GPGSV,3,1,12,02,56,333,28,04,08,040,,05,49,238,29,06,54,038,26*7A
$GPGSV,3,2,12,09,31,066,23,12,35,277,28,13,01,185,,15,,,24*41
$GPGSV,3,3,12,17,31,134,26,19,51,128,32,24,,,23,25,18,304,*44
$GPGLL,3212.49408,N,11440.61960,E,110626.00,A,A*60
$GPRMC,110627.00,A,3212.49420,N,11440.61972,E,0.171,,130520,,,A*73
$GPVTG,,T,,M,0.171,N,0.318,K,A*2E
$GPGGA,110627.00,3212.49420,N,11440.61972,E,1,07,1.15,37.7,M,-10.5,M,,*45
$GPGSA,A,3,05,19,02,09,17,12,06,,,,,,3.27,1.15,3.06*01
$GPGSV,4,1,15,01,,,36,02,56,333,26,04,08,040,34,05,49,238,27*41
$GPGSV,4,2,15,06,54,038,23,09,31,066,22,12,35,277,25,13,01,185,36*77
$GPGSV,4,3,15,15,,,29,17,31,134,24,19,51,128,30,23,,,35*72
$GPGSV,4,4,15,24,,,22,25,18,304,28,42,44,138,32*75
$GPGLL,3212.49420,N,11440.61972,E,110627.00,A,A*68
$GPRMC,110628.00,A,3212.49426,N,11440.61983,E,0.345,,130520,,,A*71
$GPVTG,,T,,M,0.345,N,0.639,K,A*2D
$GPGGA,110628.00,3212.49426,N,11440.61983,E,1,07,1.15,37.5,M,-10.5,M,,*40
$GPGSA,A,3,05,19,02,09,17,12,06,,,,,,3.27,1.15,3.06*01
$GPGSV,4,1,14,01,,,38,02,56,333,25,04,08,040,31,05,49,238,25*4A
$GPGSV,4,2,14,06,54,038,21,08,,,38,09,31,066,21,12,35,277,22*49
$GPGSV,4,3,14,13,01,185,31,15,,,29,17,31,134,22,19,51,128,29*47
$GPGSV,4,4,14,23,,,31,25,18,304,33*46
$GPGLL,3212.49426,N,11440.61983,E,110628.00,A,A*6F
$GPRMC,110629.00,A,3212.49398,N,11440.61966,E,0.209,,130520,,,A*70
$GPVTG,,T,,M,0.209,N,0.387,K,A*24
$GPGGA,110629.00,3212.49398,N,11440.61966,E,1,07,1.15,37.4,M,-10.5,M,,*49
$GPGSA,A,3,05,19,02,09,17,12,06,,,,,,3.27,1.15,3.06*01
$GPGSV,4,1,15,01,,,16,02,56,333,25,04,08,040,,05,49,238,25*45
$GPGSV,4,2,15,06,54,038,21,08,,,26,09,31,066,21,12,35,277,19*4F
$GPGSV,4,3,15,13,01,185,21,15,,,20,17,31,134,21,19,51,128,29*4D
$GPGSV,4,4,15,23,,,23,24,,,18,25,18,304,*4B
$GPGLL,3212.49398,N,11440.61966,E,110629.00,A,A*67
$GPRMC,110630.00,A,3212.49396,N,11440.61991,E,0.295,,130520,,,A*7B
$GPVTG,,T,,M,0.295,N,0.546,K,A*2A
$GPGGA,110630.00,3212.49396,N,11440.61991,E,1,07,1.15,37.0,M,-10.5,M,,*43
$GPGSA,A,3,05,19,02,09,17,12,06,,,,,,3.27,1.15,3.06*01
$GPGSV,4,1,16,01,,,23,02,56,333,25,04,08,040,23,05,49,238,24*40
$GPGSV,4,2,16,06,54,038,21,08,,,28,09,31,066,20,12,35,277,18*42
$GPGSV,4,3,16,13,01,185,26,15,,,23,17,31,134,21,19,51,128,29*4A
$GPGSV,4,4,16,23,,,25,24,,,24,25,18,304,24,42,44,138,28*71
$GPGLL,3212.49396,N,11440.61991,E,110630.00,A,A*69
$GPRMC,110631.00,A,3212.49420,N,11440.62030,E,0.603,,130520,,,A*7A
$GPVTG,,T,,M,0.603,N,1.116,K,A*21
$GPGGA,110631.00,3212.49420,N,11440.62030,E,1,07,1.15,36.5,M,-10.5,M,,*4D
$GPGSA,A,3,05,19,02,09,17,12,06,,,,,,3.27,1.15,3.06*01
$GPGSV,4,1,16,01,,,20,02,56,333,24,04,08,040,21,05,49,238,23*47
$GPGSV,4,2,16,06,54,038,21,08,,,26,09,31,066,20,12,35,277,18*4C
$GPGSV,4,3,16,13,01,185,25,15,,,23,17,31,134,21,19,51,128,29*49
$GPGSV,4,4,16,23,,,23,24,,,21,25,18,304,20,42,44,138,27*79
$GPGLL,3212.49420,N,11440.62030,E,110631.00,A,A*63
$GPRMC,110632.00,A,3212.49431,N,11440.62075,E,0.957,,130520,,,A*76
$GPVTG,,T,,M,0.957,N,1.772,K,A*2B
$GPGGA,110632.00,3212.49431,N,11440.62075,E,1,07,1.15,36.1,M,-10.5,M,,*4B
$GPGSA,A,3,05,19,02,09,17,12,06,,,,,,3.27,1.15,3.06*01
$GPGSV,4,1,14,02,56,333,24,04,08,040,17,05,49,238,24,06,54,038,22*78
$GPGSV,4,2,14,08,,,22,09,31,066,21,12,35,277,18,13,01,185,21*48
$GPGSV,4,3,14,15,,,22,17,31,134,22,19,51,128,29,23,,,20*72
$GPGSV,4,4,14,24,,,20,25,18,304,18*48
$GPGLL,3212.49431,N,11440.62075,E,110632.00,A,A*61
$GPRMC,110633.00,A,3212.49444,N,11440.62091,E,0.789,,130520,,,A*72
$GPVTG,,T,,M,0.789,N,1.462,K,A*24
$GPGGA,110633.00,3212.49444,N,11440.62091,E,1,07,1.15,35.7,M,-10.5,M,,*47
$GPGSA,A,3,05,19,02,09,17,12,06,,,,,,3.27,1.15,3.06*01
$GPGSV,4,1,13,02,56,333,24,04,08,040,14,05,49,238,24,06,54,038,22*7C
$GPGSV,4,2,13,09,31,066,21,12,35,277,18,13,01,185,20,15,,,22*42
$GPGSV,4,3,13,17,31,134,22,19,51,128,29,23,,,18,24,,,21*7F
$GPGSV,4,4,13,25,18,304,15*46
$GPGLL,3212.49444,N,11440.62091,E,110633.00,A,A*68
$GPRMC,110634.00,A,3212.49429,N,11440.62078,E,0.319,,130520,,,A*74
$GPVTG,,T,,M,0.319,N,0.591,K,A*25
$GPGGA,110634.00,3212.49429,N,11440.62078,E,1,07,1.15,35.4,M,-10.5,M,,*4F
$GPGSA,A,3,05,19,02,09,17,12,06,,,,,,3.27,1.15,3.06*01
$GPGSV,4,1,15,02,56,333,24,04,08,040,,05,49,238,24,06,54,038,22*7F
$GPGSV,4,2,15,08,,12.49420,N,11440.61929,E,0.075,,130520,,,A*7B
$GPVTG,,T,,M,0.075,N,0.138,K,A*2B
$GPGGA,110653.00,3212.49420,N,11440.61929,E,1,07,1.35,35.7,M,-10.5,M,,*48
$GPGSA,A,3,05,02,19,09,17,12,06,,,,,,3.64,1.35,3.38*09
$GPGSV,4,1,14,01,,,20,02,56,334,24,04,08,039,,05,49,238,28*44
$GPGSV,4,2,14,06,54,038,28,09,31,066,26,12,35,277,35,13,01,185,*7D
$GPGSV,4,3,14,15,,,19,17,31,134,29,19,51,128,31,23,,,19*72
$GPGSV,4,4,14,24,,,24,25,18,304,*45
$GPGLL,3212.49420,N,11440.61929,E,110653.00,A,A*65
$GPRMC,110654.00,A,3212.49440,N,11440.61922,E,0.034,,130520,,,A*74
$GPVTG,,T,,M,0.034,N,0.062,K,A*20
$GPGGA,110654.00,3212.49440,N,11440.61922,E,1,07,1.15,35.6,M,-10.5,M,,*41
$GPGSA,A,3,05,02,19,09,17,12,06,,,,,,3.26,1.15,3.05*03
$GPGSV,4,1,15,01,,,13,02,56,334,24,04,08,039,,05,50,238,28*4D
$GPGSV,4,2,15,06,54,038,28,08,,,27,09,31,066,26,12,35,277,35*4E
$GPGSV,4,3,15,13,01,185,,15,,,15,17,31,134,29,19,51,128,31*49
$GPGSV,4,4,15,23,,,12,24,,,23,25,18,304,*41
$GPGLL,3212.49440,N,11440.61922,E,110654.00,A,A*6F
,11440.61917,E,1,07,1.15,35.8,M,-10.5,M,,*4E
$GPGSA,A,3,05,02,19,09,17,12,06,,,,,,3.26,1.15,3.05*03
$GPGSV,4,1,13,02,56,334,23,04,08,039,,05,50,238,27,06,53,039,28*70
$GPGSV,4,2,13,08,,,25,09,31,066,26,12,35,277,34,13,01,185,*42
$GPGSV,4,3,13,17,31,134,30,19,51,128,31,23,,,10,24,,,21*7D
$GPGSV,4,4,13,25,18,304,*42
$GPGLL,3212.49445,N,11440.61917,E,110656.00,A,A*6E
$GPRMC,110657.00,A,3212.49473,N,11440.61910,E,0.035,,130520,,,A*77
$GPVTG,,T,,M,0.035,N,0.064,K,A*27
$GPGGA,110657.00,3212.49473,N,11440.61910,E,1,07,1.15,36.2,M,-10.5,M,,*44
$GPGSA,A,3,05,02,19,09,17,12,06,,,,,,3.26,1.15,3.05*03
$GPGSV,4,1,13,02,56,334,23,04,08,039,19,05,50,238,27,06,53,039,28*78
$GPGSV,4,2,13,08,,,27,09,31,066,26,12,35,277,34,13,01,185,*40
$GPGSV,4,3,13,17,31,134,30,19,51,128,30,23,,,09,24,,,22*77
$GPGSV,4,4,13,25,18,304,*42
$GPGLL,3212.49473,N,11440.61910,E,110657.00,A,A*6D
$GPRMC,110658.00,A,3212.49490,N,11440.61908,E,0.073,,130520,,,A*7E
$GPVTG,,T,,M,0.073,N,0.135,K,A*20
$GPGGA,110658.00,3212.49490,N,11440.61908,E,1,07,1.15,36.3,M,-10.5,M,,*4E
$GPGSA,A,3,05,02,19,09,17,12,06,,,,,,3.26,1.15,3.05*03
$GPGSV,3,1,12,02,56,334,22,04,08,039,20,05,50,238,27,06,53,039,27*7A
$GPGSV,3,2,12,08,,,27,09,31,065,26,12,35,277,34,13,01,185,*45
$GPGSV,3,3,12,17,31,134,30,19,51,128,30,23,,,08,25,18,304,*4F
$GPGLL,3212.49490,N,11440.61908,E,110658.00,A,A*66
$GPRMC,110659.00,A,3212.49504,N,11440.61913,E,0.135,,130520,,,A*7A
$GPVTG,,T,,M,0.135,N,0.251,K,A*22
$GPGGA,110659.00,3212.49504,N,11440.61913,E,1,07,1.15,36.3,M,-10.5,M,,*49
$GPGSA,A,3,05,02,19,09,17,12,06,,,,,,3.26,1.15,3.05*03
$GPGSV,3,1,12,02,56,334,22,04,08,039,20,05,50,238,27,06,53,039,27*7A
$GPGSV,3,2,12,08,,,27,09,31,065,26,12,35,277,34,13,01,185,*45
$GPGSV,3,3,12,17,31,134,30,19,51,128,30,23,,,08,25,18,304,*4F
$GPGLL,3212.49504,N,11440.61913,E,110659.00,A,A*61
$GPRMC,110700.00,A,3212.49515,N,11440.61920,E,0.190,,130520,,,A*78
$GPVTG,,T,,M,0.190,N,0.352,K,A*2F
$GPGGA,110700.00,3212.49515,N,11440.61920,E,1,07,1.15,36.5,M,-10.5,M,,*42
$GPGSA,A,3,05,02,19,09,17,12,06,,,,,,3.26,1.15,3.05*03
$GPGSV,3,1,12,02,56,334,22,04,08,039,20,05,50,238,27,06,53,039,28*75
$GPGSV,3,2,12,08,,,25,09,31,065,26,12,35,277,34,13,01,185,*47
$GPGSV,3,3,12,17,31,134,30,19,51,128,30,23,,,08,25,18,304,*4F
$GPGLL,3212.49515,N,11440.61920,E,110700.00,A,A*6C
$GPRMC,110701.00,A,3212.49518,N,11440.61919,E,0.028,,130520,,,A*7C
$GPVTG,,T,,M,0.028,N,0.052,K,A*2E
$GPGGA,110701.00,3212.49518,N,11440.61919,E,1,07,1.15,36.5,M,-10.5,M,,*44
$GPGSA,A,3,05,02,19,09,17,12,06,,,,,,3.26,1.15,3.05*03
$GPGSV,3,1,12,02,56,334,22,04,08,039,20,05,50,238,27,06,53,039,28*75
$GPGSV,3,2,12,08,,,23,09,31,065,27,12,35,276,35,13,01,185,*40
$GPGSV,3,3,12,17,31,134,30,19,51,128,31,23,,,08,25,18,304,19*46
$GPGLL,3212.49518,N,11440.61919,E,110701.00,A,A*6A
$GPRMC,110702.00,A,3212.49521,N,11440.61920,E,0.014,,130520,,,A*70
$GPVTG,,T,,M,0.014,N,0.027,K,A*23
$GPGGA,110702.00,3212.49521,N,11440.61920,E,1,07,1.15,36.5,M,-10.5,M,,*47
$GPGSA,A,3,05,02,19,09,17,12,06,,,,,,3.26,1.15,3.05*03
$GPGSV,3,1,12,02,56,334,22,04,08,039,20,05,50,238,27,06,53,039,28*75
$GPGSV,3,2,12,08,,,20,09,31,065,26,12,35,276,35,13,01,184,*43
$GPGSV,3,3,12,17,31,134,30,19,51,128,31,23,,,08,25,18,304,19*46
$GPGLL,3212.49521,N,11440.61920,E,110702.00,A,A*69
$GPRMC,110703.00,A,3212.49512,N,11440.61920,E,0.124,,130520,,,A*73
$GPVTG,,T,,M,0.124,N,0.229,K,A*2D
$GPGGA,110703.00,3212.49512,N,11440.61920,E,1,07,1.15,36.2,M,-10.5,M,,*41
$GPGSA,A,3,05,02,19,09,17,12,06,,,,,,3.26,1.15,3.05*03
$GPGSV,3,1,12,02,56,334,23,04,08,039,21,05,50,238,26,06,53,039,27*7B
$GPGSV,3,2,12,08,,,16,09,31,065,26,12,35,276,35,13,01,184,20*44
$GPGSV,3,3,12,17,31,134,30,19,51,128,31,23,,,08,25,18,304,21*4D
$GPGLL,3212.49512,N,11440.61920,E,110703.00,A,A*68
$GPRMC,110704.00,A,3212.49517,N,11440.61922,E,0.028,,130520,,,A*7E
$GPVTG,,T,,M,0.028,N,0.052,K,A*2E
$GPGGA,110704.00,3212.49517,N,11440.61922,E,1,07,1.15,36.2,M,-10.5,M,,*41
$GPGSA,A,3,05,02,19,09,17,12,06,,,,,,3.26,1.15,3.05*03
$GPGSV,3,1,12,02,56,334,24,04,08,039,21,05,50,238,26,06,53,039,27*7C
$GPGSV,3,2,12,08,,,14,09,31,065,26,12,35,276,35,13,01,184,18*4D
$GPGSV,3,3,12,17,31,134,31,19,51,128,31,23,,,08,25,18,304,20*4D
$GPGLL,3212.49517,N,11440.61922,E,110704.00,A,A*68
$GPRMC,110705.00,A,3212.49520,N,11440.61925,E,0.133,,130520,,,A*77
$GPVTG,,T,,M,0.133,N,0.247,K,A*23
$GPGGA,110705.00,3212.49520,N,11440.61925,E,1,07,1.15,36.3,M,-10.5,M,,*42
$GPGSA,A,3,05,02,19,09,17,12,06,,,,,,3.26,1.15,3.05*03
$GPGSV,3,1,11,02,56,334,24,04,08,039,21,05,50,238,26,06,53,039,28*70
$GPGSV,3,2,11,09,31,065,26,12,35,276,35,13,01,184,17,17,31,134,31*7C
$GPGSV,3,3,11,19,51,128,31,23,,,08,25,18,304,20*7E
$GPGLL,3212.49520,N,11440.61925,E,110705.00,A,A*6A
$GPRMC,110706.00,A,3212.49520,N,11440.61927,E,0.034,,130520,,,A*70
$GPVTG,,T,,M,0.034,N,0.062,K,A*20
$GPGGA,110706.00,3212.49520,N,11440.61927,E,1,07,1.15,36.2,M,-10.5,M,,*42
$GPGSA,A,3,05,02,19,09,17,12,06,,,,,,3.26,1.1527,E,110706.00,A,A*6B
$GPRMC,110707.00,A,3212.49522,N,11440.61932,E,0.047,,130520,,,A*73
$GPVTG,,T,,M,0.047,N,0.087,K,A*2F
$GPGGA,110707.00,3212.49522,N,11440.61932,E,1,07,1.15,36.1,M,-10.5,M,,*46
$GPGSA,A,3,05,02,19,09,17,12,06,,,,,,3.26,1.15,3.05*03
$GPGSV,3,1,10,02,56,334,23,04,08,039,21,05,50,238,26,06,53,039,28*76
$GPGSV,3,2,10,09,31,065,26,12,35,276,35,13,01,184,,17,31,134,30*7A
$GPGSV,3,3,10,19,51,128,31,25,18,304,20*76
$GPGLL,3212.49522,N,11440.61932,E,110707.00,A,A*6C
$GPRMC,110708.00,A,3212.49528,N,11440.61936,E,0.036,,130520,,,A*74
$GPVTG,,T,,M,0.036,N,0.066,K,A*26
$GPGGA,110708.00,3212.49528,N,11440.61936,E,1,07,1.15,35.9,M,-10.5,M,,*4C
$GPGSA,A,3,05,02,19,09,17,12,06,,,,,,3.26,1.15,3.05*03
$GPGSV,3,1,10,02,56,334,23,04,08,039,21,05,50,238,26,06,53,039,28*76
$GPGSV,3,2,10,09,31,065,27,12,35,276,35,13,01,184,,17,31,134,30*7B
$GPGSV,3,3,10,19,50,129,31,25,18,304,20*76
$GPGLL,3212.49528,N,11440.61936,E,110708.00,A,A*6D
$GPRMC,110709.00,A,3212.49535,N,11440.61938,E,0.070,,130520,,,A*75
$GPVTG,,T,,M,0.070,N,0.129,K,A*2E
$GPGGA,110709.00,3212.49535,N,11440.61938,E,1,07,1.15,35.8,M,-10.5,M,,*4E
$GPGSA,A,3,05,02,19,09,17,12,06,,,,,,3.26,1.15,3.05*03
$GPGSV,3,1,10,02,56,334,23,04,08,039,21,05,50,238,25,06,53,039,27*7A
$GPGSV,3,2,10,09,31,065,26,12,35,276,34,13,01,184,22,17,31,134,29*73
$GPGSV,3,3,10,19,50,129,30,25,18,304,20*77
$GPGLL,3212.49535,N,11440.61938,E,110709.00,A,A*6E
$GPRMC,110710.00,A,3212.49532,N,11440.61939,E,0.130,,130520,,,A*7E
$GPVTG,,T,,M,0.130,N,0.242,K,A*25
$GPGGA,110710.00,3212.49532,N,11440.61939,E,1,07,1.15,35.6,M,-10.5,M,,*4E
$GPGSA,A,3,05,02,19,09,17,12,06,,,,,,3.26,1.15,3.05*03
$GPGSV,3,1,10,02,56,334,23,04,08,039,21,05,50,238,26,06,53,039,28*76
$GPGSV,3,2,10,09,31,065,27,12,35,276,35,13,01,184,20,17,31,134,30*79
$GPGSV,3,3,10,19,50,129,30,25,18,304,19*7D
$GPGLL,3212.49532,N,11440.61939,E,110710.00,A,A*60
$GPRMC,110711.00,A,3212.49535,N,11440.61942,E,0.099,,130520,,,A*76
$GPVTG,,T,,M,0.099,N,0.184,K,A*2E
$GPGGA,110711.00,3212.49535,N,11440.61942,E,1,07,1.15,35.4,M,-10.5,M,,*46
$GPGSA,A,3,05,02,19,09,17,12,06,,,,,,3.26,1.15,3.05*03
$GPGSV,3,1,10,02,56,334,24,04,08,039,21,05,50,238,25,06,53,039,27*7D
$GPGSV,3,2,10,09,31,065,27,12,35,276,35,13,01,184,17,17,31,134,30*7D
$GPGSV,3,3,10,19,50,129,30,25,18,304,18*7C
$GPGLL,3212.49535,N,11440.61942,E,110711.00,A,A*6A
$GPRMC,110712.00,A,3212.49541,N,11440.61946,E,0.070,,130520,,,A*75
$GPVTG,,T,,M,0.070,N,0.131,K,A*27
$GPGGA,110712.00,3212.49541,N,11440.61946,E,1,07,1.15,35.1,M,-10.5,M,,*47
$GPGSA,A,3,05,02,19,09,17,12,06,,,,,,3.26,1.15,3.05*03
$GPGSV,3,1,10,02,56,334,24,04,08,039,21,05,50,238,25,06,53,039,27*7D
$GPGSV,3,2,10,09,31,065,27,12,35,276,35,13,01,184,,17,31,134,30*7B
$GPGSV,3,3,10,19,50,129,30,25,18,304,18*7C
$GPGLL,3212.49541,N,11440.61946,E,110712.00,A,A*6E
$GPRMC,110713.00,A,3212.49543,N,11440.61951,E,0.062,,130520,,,A*73
$GPVTG,,T,,M,0.062,N,0.115,K,A*22
$GPGGA,110713.00,3212.49543,N,11440.61951,E,1,07,1.15,35.0,M,-10.5,M,,*43
$GPGSA,A,3,05,02,19,09,17,12,06,,,,,,3.26,1.15,3.05*03
$GPGSV,3,1,10,02,56,334,24,04,08,039,21,05,50,238,25,06,53,039,27*7D
$GPGSV,3,2,10,09,31,065,26,12,35,276,35,13,01,184,,17,31,134,30*7A
$GPGSV,3,3,10,19,50,129,30,25,18,304,17*73
$GPGLL,3212.49543,N,11440.61951,E,110713.00,A,A*6B
$GPRMC,110714.00,A,3212.49549,N,11440.61956,E,0.014,,130520,,,A*78
$GPVTG,,T,,M,0.014,N,0.026,K,A*22
$GPGGA,110714.00,3212.49549,N,11440.61956,E,1,07,1.15,34.8,M,-10.5,M,,*40
$GPGSA,A,3,05,02,19,09,17,12,06,,,,,,3.26,1.15,3.05*03
$GPGSV,3,1,10,02,56,334,24,04,08,039,22,05,50,238,25,06,53,039,27*7E
$GPGSV,3,2,10,09,31,065,26,12,35,276,35,13,01,184,,17,31,134,30*7A
$GPGSV,3,3,10,19,50,129,30,25,18,304,18*7C
$GPGLL,3212.49549,N,11440.61956,E,110714.00,A,A*61
$GPRMC,110715.00,A,3212.49546,N,11440.61957,E,0.115,,130520,,,A*77
$GPVTG,,T,,M,0.115,N,0.214,K,A*21
$GPGGA,110715.00,3212.49546,N,11440.61957,E,1,07,1.15,34.6,M,-10.5,M,,*41
$GPGSA,A,3,05,02,19,09,17,12,06,,,,,,3.26,1.15,3.05*03
$GPGSV,3,1,10,02,56,334,24,04,08,039,20,05,50,238,25,06,53,039,27*7C
$GPGSV,3,2,10,09,31,065,26,12,35,276,35,13,01,184,,17,31,134,30*7A
$GPGSV,3,3,10,19,50,129,30,25,18,304,18*7C
$GPGLL,3212.49546,N,11440.61957,E,110715.00,A,A*6E
$GPRMC,110716.00,A,3212.49541,N,11440.61957,E,0.183,,130520,,,A*7C
$GPVTG,,T,,M,0.183,N,0.338,K,A*21
$GPGGA,110716.00,3212.49541,N,11440.61957,E,1,07,1.15,34.3,M,-10.5,M,,*40
$GPGSA,A,3,05,02,19,09,17,12,06,,,,,,3.26,1.15,3.05*03
$GPGSV,3,1,10,02,56,334,25,04,08,039,20,05,50,238,25,06,53,039,26*7C
$GPGSV,3,2,10,09,31,065,26,12,35,276,35,13,01,184,,17,31,134,30*7A
$GPGSV,3,3,10,19,50,129,30,25,18,304,17*73
$GPGLL,3212.49541,N,11440.61957,E,110716.00,A,A*6A
$GPRMC,110717.00,A,3212.49541,N,11440.61957,E,0.070,,130520,,,A*70
$GPVTG,,T,,M,0.070,N,0.130,K,A*26
$GPGGA,110717.00,3212.49541,N,11440.61957,E,1,07,1.15,34.1,M,-10.5,M,,*43
$GPGSA,A,3,05,02,19,09,17,12,06,,,,,,3.26,1.15,3.04*02
$GPGSV,3,1,10,02,56,334,25,04,08,039,20,05,50,238,23,06,53,039,26*7A
$GPGSV,3,2,10,09,31,065,26,12,35,276,35,13,01,184,,17,31,134,30*7A
$GPGSV,3,3,10,19,50,129,30,25,18,304,17*73
$GPGLL,3212.49541,N,11440.61957,E,110717.00,A,A*6B
$GPRMC,110718.00,A,3212.49546,N,11440.61960,E,0.066,,130520,,,A*7B
$GPVTG,,T,,M,0.066,N,0.122,K,A*22
$GPGGA,110718.00,3212.49546,N,11440.61960,E,1,07,1.15,33.8,M,-10.5,M,,*41
$GPGSA,A,3,05,02,19,09,17,12,06,,,,,,3.25,1.15,3.04*01
$GPGSV,3,1,11,02,56,334,25,04,08,039,26,05,50,238,23,06,53,039,26*7D
$GPGSV,3,2,11,09,31,065,26,12,35,276,33,13,01,184,20,15,,,26*4E
$GPGSV,3,3,11,17,31,134,29,19,50,129,29,25,18,304,17*43
$GPGLL,3212.49546,N,11440.61960,E,110718.00,A,A*67
$GPRMC,110719.00,A,3212.49547,N,11440.61963,E,0.031,,130520,,,A*7A
$GPVTG,,T,,M,0.031,N,0.058,K,A*2C
$GPGGA,110719.00,3212.49547,N,11440.61963,E,1,07,1.15,33.6,M,-10.5,M,,*4C
$GPGSA,A,3,05,02,19,09,17,12,06,,,,,,3.25,1.15,3.04*01
$GPGSV,3,1,11,02,56,334,26,04,08,039,21,05,50,238,23,06,53,039,26*79
$GPGSV,3,2,11,09,31,065,26,12,35,276,34,13,01,184,,17,31,134,29*72
$GPGSV,3,3,11,19,50,129,30,24,,,21,25,18,304,17*77
$GPGLL,3212.49547,N,11440.61963,E,110719.00,A,A*64
$GPRMC,110720.00,A,3212.49550,N,11440.61965,E,0.016,,130520,,,A*75
$GPVTG,,T,,M,0.016,N,0.030,K,A*27
$GPGGA,110720.00,3212.49550,N,11440.61965,E,1,07,1.25,33.5,M,-10.5,M,,*46
$GPGSA,A,3,05,02,19,09,17,12,06,,,,,,3.53,1.25,3.30*04
$GPGSV,3,1,11,02,56,334,26,04,08,039,,05,50,238,23,06,53,039,22*7E
$GPGSV,3,2,11,09,31,065,26,12,35,276,34,13,01,184,,17,31,134,29*72
$GPGSV,3,3,11,19,50,129,29,24,,,20,25,18,304,17*7E
$GPGLL,3212.49550,N,11440.61965,E,110720.00,A,A*6E
$GPRMC,110721.00,A,3212.49550,N,11440.61966,E,0.061,,130520,,,A*77
$GPVTG,,T,,M,0.061,N,0.113,K,A*27
$GPGGA,110721.00,3212.49550,N,11440.61966,E,1,07,1.25,33.5,M,-10.5,M,,*44
$GPGSA,A,3,05,02,19,09,17,12,06,,,,,,3.53,1.25,3.30*04
$GPGSV,3,1,12,02,56,334,26,04,08,039,,05,50,238,23,06,53,039,24*7B
$GPGSV,3,2,12,09,31,065,26,12,35,276,35,13,01,184,,17,31,134,29*70
$GPGSV,3,3,12,19,50,129,29,25,18,304,17,47,14,104,29,50,40,132,33*70
$GPGLL,3212.49550,N,11440.61966,E,110721.00,A,A*6C
$GPRMC,110722.00,A,3212.49543,N,11440.61964,E,0.176,,130520,,,A*73
$GPVTG,,T,,M,0.176,N,0.326,K,A*24
$GPGGA,110722.00,3212.49543,N,11440.61964,E,1,07,1.15,33.4,M,-10.5,M,,*45
$GPGSA,A,3,05,02,19,09,17,12,06,,,,,,3.25,1.15,3.04*01
$GPGSV,3,1,10,02,56,334,26,04,08,039,,05,50,238,22,06,53,039,24*78
$GPGSV,3,2,10,09,31,065,26,12,35,276,35,13,01,184,,17,31,134,29*72
$GPGSV,3,3,10,19,50,129,29,25,18,304,17*7B
$GPGLL,3212.49543,N,11440.61964,E,110722.00,A,A*6F
$GPRMC,110723.00,A,3212.49543,N,11440.61964,E,0.092,,130520,,,A*79
$GPVTG,,T,,M,0.092,N,0.170,K,A*2E
$GPGGA,110723.00,3212.49543,N,11440.61964,E,1,06,1.85,33.4,M,-10.5,M,,*4C
$GPGSA,A,3,05,02,19,09,17,12,,,,,,,4.42,1.85,4.01*0A
$GPGSV,3,1,10,02,56,334,26,04,08,039,,05,50,238,23,06,53,039,*7F
$GPGSV,3,2,10,09,31,065,26,12,35,276,35,13,01,184,,17,31,134,30*7A
$GPGSV,3,3,10,19,50,129,30,25,18,304,*75
$GPGLL,3212.49543,N,11440.61964,E,110723.00,A,A*6E
$GPRMC,110724.00,A,3212.49545,N,11440.61967,E,0.029,,130520,,,A*7B
$GPVTG,,T,,M,0.029,N,0.054,K,A*29
$GPGGA,110724.00,3212.49545,N,11440.61967,E,1,06,1.85,33.4,M,-10.5,M,,*4E
$GPGSA,A,3,05,02,19,09,17,12,,,,,,,4.42,1.85,4.01*0A
$GPGSV,3,1,11,02,56,334,26,04,08,039,,05,50,238,23,06,53,039,*7E
$GPGSV,3,2,11,08,,,24,09,31,065,26,12,35,276,35,13,01,184,*44
$GPGSV,3,3,11,17,31,134,30,19,50,129,30,25,18,304,*45
$GPGLL,3212.49545,N,11440.61967,E,110724.00,A,A*6C
$GPRMC,110725.00,A,3212.49531,N,11440.61963,E,0.262,,130520,,,A*70
$GPVTG,,T,,M,0.262,N,0.485,K,A*2C
$GPGGA,110725.00,3212.49531,N,11440.61963,E,1,05,1.49,33.2,M,-10.5,M,,*4D
$GPGSA,A,3,05,02,19,09,12,,,,,,,,4.03,1.49,3.75*0D
$GPGSV,3,1,10,02,56,334,26,04,08,039,,05,50,238,23,06,53,039,*7F
$GPGSV,3,2,10,09,31,065,27,12,35,276,35,13,01,184,,17,31,134,*78
$GPGSV,3,3,10,19,50,129,30,25,18,304,*75
$GPGLL,3212.49531,N,11440.61963,E,110725.00,A,A*6A
$GPRMC,110726.00,A,3212.49590,N,11440.61957,E,1.052,,130520,,,A*7F
$GPVTG,,T,,M,1.052,N,1.949,K,A*20
$GPGGA,110726.00,3212.49590,N,11440.61957,E,1,05,1.49,32.4,M,-10.5,M,,*45
$GPGSA,A,3,05,02,19,09,12,,,,,,,,4.03,1.49,3.75*0D
$GPGSV,4,1,14,02,56,334,27,04,08,039,,05,50,238,22,06,53,039,*7C
$GPGSV,4,2,14,08,,,25,09,31,065,27,12,35,276,35,13,01,184,*46
$GPGSV,4,3,14,15,,,21,17,31,134,28,19,50,129,29,23,,,22*79
$GPGSV,4,4,14,24,,,26,25,18,304,*47
$GPGLL,3212.49590,N,11440.61957,E,110726.00,A,A*65
$GPRMC,110727.00,A,3212.49610,N,11440.61958,E,0.761,,130520,,,A*7C
$GPVTG,,T,,M,0.761,N,1.409,K,A*2F
$GPGGA,110727.00,3212.49610,N,11440.61958,E,1,06,1.25,32.3,M,-10.5,M,,*4E
$GPGSA,A,3,05,02,19,09,17,12,,,,,,,3.52,1.25,3.29*0B
$GPGSV,4,1,14,02,56,334,27,04,08,039,,05,50,238,22,06,53,039,*7C
$GPGSV,4,2,14,08,,,23,09,31,065,27,12,35,276,35,13,01,184,*40
$GPGSV,4,3,14,15,,,17,17,31,134,29,19,50,129,29,23,,,18*74
$GPGSV,4,4,14,24,,,23,25,18,304,*42
$GPGLL,3212.49610,N,11440.61958,E,110727.00,A,A*60
$GPRMC,110728.00,A,3212.49623,N,11440.61963,E,0.591,,130520,,,A*76
$GPVTG,,T,,M,0.591,N,1.094,K,A*22
$GPGGA,110728.00,3212.49623,N,11440.61963,E,1,05,1.86,32.0,M,-10.5,M,,*40
$GPGSA,A,3,05,02,19,17,12,,,,,,,,4.42,1.86,4.01*00
$GPGSV,3,1,12,02,56,334,27,04,08,039,,05,50,238,22,06,53,039,*7D
$GPGSV,3,2,12,08,,,43,09,31,065,,12,35,276,35,13,01,184,*42
$GPGSV,3,3,12,17,31,134,30,19,50,129,30,25,18,304,,50,40,132,34*70
$GPGLL,3212.49623,N,11440.61963,E,110728.00,A,A*67
$GPRMC,110729.00,A,3212.49632,N,11440.61967,E,0.453,,130520,,,A*7C
$GPVTG,,T,,M,0.453,N,0.839,K,A*23
$GPGGA,110729.00,3212.49632,N,11440.61967,E,1,05,1.86,31.7,M,-10.5,M,,*41
$GPGSA,A,3,05,02,19,17,12,,,,,,,,4.42,1.86,4.01*00
$GPGSV,4,1,14,01,,,29,02,56,334,27,04,08,039,,05,50,238,23*4D
$GPGSV,4,2,14,06,53,039,,08,,,31,09,31,065,,12,35,276,36*41
$GPGSV,4,3,14,13,01,184,,15,,,27,17,31,134,29,19,50,129,29*41
$GPGSV,4,4,14,23,,,23,25,18,304,*45
$GPGLL,3212.49632,N,11440.61967,E,110729.00,A,A*62
$GPRMC,110730.00,A,3212.49642,N,11440.61974,E,0.395,,130520,,,A*7C
$GPVTG,,T,,M,0.395,N,0.731,K,A*29
$GPGGA,110730.00,3212.49642,N,11440.61974,E,1,05,1.86,31.5,M,-10.5,M,,*4E
$GPGSA,A,3,05,02,19,17,12,,,,,,,,4.42,1.86,4.01*00
$GPGSV,4,1,14,01,,,28,02,56,334,25,04,08,039,,05,50,238,26*4B
$GPGSV,4,2,14,06,53,039,,08,,,24,09,31,065,,12,35,276,36*45
$GPGSV,4,3,14,13,01,184,,15,,,24,17,31,134,28,19,50,129,29*43
$GPGSV,4,4,14,23,,,22,25,18,304,*44
$GPGLL,3212.49642,N,11440.61974,E,110730.00,A,A*6F
$GPRMC,110731.00,A,3212.49650,N,11440.61972,E,0.312,,130520,,,A*77
$GPVTG,,T,,M,0.312,N,0.578,K,A*29
$GPGGA,110731.00,3212.49650,N,11440.61972,E,1,05,1.86,31.4,M,-10.5,M,,*4B
$GPGSA,A,3,05,02,19,17,12,,,,,,,,4.42,1.86,4.01*00
$GPGSV,4,1,14,01,,,32,02,56,334,25,04,08,039,33,05,50,238,27*41
$GPGSV,4,2,14,06,53,039,,08,,,36,09,31,065,,12,35,276,37*47
$GPGSV,4,3,14,13,01,184,,17,31,134,28,19,50,129,29,23,,,33*40
$GPGSV,4,4,14,25,18,304,,50,40,132,33*74
$GPGLL,3212.49650,N,11440.61972,E,110731.00,A,A*6B
$GPRMC,110732.00,A,3212.49652,N,11440.61970,E,0.189,,130520,,,A*74
$GPVTG,,T,,M,0.189,N,0.350,K,A*25
$GPGGA,110732.00,3212.49652,N,11440.61970,E,1,07,1.86,31.3,M,-10.5,M,,*4D
$GPGSA,A,3,05,02,19,09,17,12,06,,,,,,4.42,1.86,4.01*0F
$GPGSV,4,1,14,01,,,27,02,56,334,24,04,08,039,38,05,50,238,27*4F
$GPGSV,4,2,14,06,53,039,23,08,,,32,09,31,065,21,12,35,276,37*41
$GPGSV,4,3,14,13,01,184,,15,,,27,17,31,134,28,19,50,129,29*40
$GPGSV,4,4,14,25,18,304,,50,40,132,32*75
$GPGLL,3212.49652,N,11440.61970,E,110732.00,A,A*68
$GPRMC,110733.00,A,3212.49660,N,11440.61970,E,0.150,,130520,,,A*70
$GPVTG,,T,,M,0.150,N,0.278,K