$GPRMC,110907.00,A,3212.49553,N,11440.62020,E,0.067,,130520,,,A*70
$GPVTG,,T,,M,0.067,N,0.124,K,A*25
$GPGGA,110907.00,3212.49553,N,11440.62020,E,1,07,1.15,24.6,M,-10.5,M,,*43
$GPGSA,A,3,05,02,19,09,17,12,06,,,,,,3.21,1.15,3.00*01
$GPGSV,3,1,10,02,57,335,17,04,08,039,20,05,50,239,23,06,53,040,29*7B
$GPGSV,3,2,10,09,31,065,24,12,34,275,31,13,02,184,20,17,30,135,26*78
$GPGSV,3,3,10,19,50,129,28,25,18,303,21*78
$GPGLL,3212.49553,N,11440.62020,E,110907.00,A,A*6D
$GPRMC,110908.00,A,3212.49552,N,11440.62014,E,0.110,,130520,,,A*78
$GPVTG,,T,,M,0.110,N,0.203,K,A*22
$GPGGA,110908.00,3212.49552,N,11440.62014,E,1,07,1.15,25.2,M,-10.5,M,,*4F
$GPGSA,A,3,05,02,19,09,17,12,06,,,,,,3.21,1.15,3.00*01
$GPGSV,3,1,10,02,57,335,18,04,08,039,17,05,50,239,23,06,53,040,28*71
$GPGSV,3,2,10,09,31,065,25,12,34,275,31,13,02,184,18,17,30,135,26*72
$GPGSV,3,3,10,19,50,129,28,25,18,303,21*78
$GPGLL,3212.49552,N,11440.62014,E,110908.00,A,A*64
$GPRMC,110909.00,A,3212.49556,N,11440.62016,E,0.245,,130520,,,A*7C
$GPVTG,,T,,M,0.245,N,0.454,K,A*25
$GPGGA,110909.00,3212.49556,N,11440.62016,E,1,07,1.15,25.5,M,-10.5,M,,*4F
$GPGSA,A,3,05,02,19,09,17,12,06,,,,,,3.21,1.15,3.00*01
$GPGSV,3,1,10,02,57,335,19,04,08,039,,05,50,239,23,06,53,040,29*77
$GPGSV,3,2,10,09,31,065,25,12,34,275,31,13,02,184,16,17,30,135,26*7C
$GPGSV,3,3,10,19,50,129,28,25,18,303,21*78
$GPGLL,3212.49556,N,11440.62016,E,110909.00,A,A*63
$GPRMC,110910.00,A,3212.49550,N,11440.62009,E,0.123,,130520,,,A*7F
$GPVTG,,T,,M,0.123,N,0.229,K,A*2A
$GPGGA,110910.00,3212.49550,N,11440.62009,E,1,07,1.15,26.1,M,-10.5,M,,*48
$GPGSA,A,3,05,02,19,09,17,12,06,,,,,,3.21,1.15,3.00*01
$GPGSV,3,1,10,02,57,335,19,04,08,039,,05,50,239,23,06,53,040,29*77
$GPGSV,3,2,10,09,31,065,25,12,34,275,32,13,02,184,16,17,30,135,26*7F
$GPGSV,3,3,10,19,50,129,29,25,18,303,21*79
$GPGLL,3212.49550,N,11440.62009,E,110910.00,A,A*63
$GPRMC,110911.00,A,3212.49542,N,11440.62004,E,0.018,,130520,,,A*79
$GPVTG,,T,,M,0.018,N,0.034,K,A*2D
$GPGGA,110911.00,3212.49542,N,11440.62004,E,1,07,1.15,27.0,M,-10.5,M,,*47
$GPGSA,A,3,05,02,19,09,17,12,06,,,,,,3.21,1.15,3.00*01
$GPGSV,3,1,10,02,57,335,20,04,08,039,,05,50,239,23,06,53,040,29*7D
$GPGSV,3,2,10,09,31,065,25,12,34,275,32,13,02,184,16,17,30,135,27*7E
$GPGSV,3,3,10,19,50,129,29,25,18,303,22*7A
$GPGLL,3212.49542,N,11440.62004,E,110911.00,A,A*6C
$GPRMC,110912.00,A,3212.49541,N,11440.62001,E,0.005,,130520,,,A*70
$GPVTG,,T,,M,0.005,N,0.008,K,A*2E
$GPGGA,110912.00,3212.49541,N,11440.62001,E,1,07,1.15,27.7,M,-10.5,M,,*45
$GPGSA,A,3,05,02,19,09,17,12,06,,,,,,3.21,1.15,3.00*01
$GPGSV,3,1,10,02,57,335,21,04,08,039,20,05,50,239,23,06,53,040,29*7E
$GPGSV,3,2,10,09,31,065,26,12,34,275,32,13,02,184,,17,30,135,26*7B
$GPGSV,3,3,10,19,50,129,29,25,18,303,21*79
$GPGLL,3212.49541,N,11440.62001,E,110912.00,A,A*69
$GPRMC,110913.00,A,3212.49532,N,11440.61984,E,0.117,,130520,,,A*70
$GPVTG,,T,,M,0.117,N,0.217,K,A*20
$GPGGA,110913.00,3212.49532,N,11440.61984,E,1,07,1.15,29.2,M,-10.5,M,,*4C
$GPGSA,A,3,05,02,19,09,17,12,06,,,,,,3.21,1.15,3.00*01
$GPGSV,3,1,10,02,57,336,21,04,07,039,18,05,50,239,23,06,53,040,30*71
$GPGSV,3,2,10,09,31,065,26,12,34,275,32,13,02,184,,17,30,135,27*7A
$GPGSV,3,3,10,19,50,129,29,25,18,303,21*79
$GPGLL,3212.49532,N,11440.61984,E,110913.00,A,A*6B
$GPRMC,110914.00,A,3212.49530,N,11440.61975,E,0.072,,130520,,,A*79
$GPVTG,,T,,M,0.072,N,0.133,K,A*27
$GPGGA,110914.00,3212.49530,N,11440.61975,E,1,07,1.15,29.9,M,-10.5,M,,*4C
$GPGSA,A,3,05,02,19,09,17,12,06,,,,,,3.21,1.15,3.00*01
$GPGSV,3,1,10,02,57,336,20,04,07,039,14,05,50,239,24,06,53,040,30*7B
$GPGSV,3,2,10,09,31,065,26,12,34,275,32,13,02,184,,17,30,135,27*7A
$GPGSV,3,3,10,19,50,129,29,25,18,303,21*79
$GPGLL,3212.49530,N,11440.61975,E,110914.00,A,A*60
$GPRMC,110915.00,A,3212.49522,N,11440.61974,E,0.160,,130520,,,A*78
$GPVTG,,T,,M,0.160,N,0.296,K,A*29
$GPGGA,110915.00,3212.49522,N,11440.61974,E,1,07,1.15,30.0,M,-10.5,M,,*4E
$GPGSA,A,3,05,02,19,09,17,12,06,,,,,,3.21,1.15,3.00*01
$GPGSV,3,1,12,02,57,336,20,04,07,039,12,05,50,239,24,06,53,040,29*77
$GPGSV,3,2,12,08,,,24,09,31,065,26,12,34,275,28,13,02,184,*4A
$GPGSV,3,3,12,15,,,11,17,30,135,27,19,50,129,29,25,18,303,21*48
$GPGLL,3212.49522,N,11440.61974,E,110915.00,A,A*63
$GPRMC,110916.00,A,3212.49530,N,11440.61967,E,0.218,,130520,,,A*76
$GPVTG,,T,,M,0.218,N,0.405,K,A*29
$GPGGA,110916.00,3212.49530,N,11440.61967,E,1,07,1.15,30.9,M,-10.5,M,,*45
$GPGSA,A,3,05,02,19,09,17,12,06,,,,,,3.21,1.15,3.00*01
$GPGSV,4,1,15,02,57,336,20,04,07,039,13,05,51,239,25,06,53,040,29*76
$GPGSV,4,2,15,08,,,29,09,31,065,26,12,34,275,29,13,02,184,*46
$GPGSV,4,3,15,15,,,24,17,30,135,27,19,50,129,28,24,,,29*7F
$GPGSV,4,4,15,25,18,303,20,42,44,138,27,50,40,132,28*43
$GPGLL,3212.49530,N,11440.61967,E,110916.00,A,A*61
$GPRMC,110917.00,A,3212.49524,N,11440.61969,E,0.064,,130520,,,A*75
$GPVTG,,T,,M,0.064,N,0.118,K,A*29
$GPGGA,110917.00,3212.49524,N,11440.61969,E,1,07,1.15,30.8,M,-10.5,M,,*4E
$GPGSA,A,3,05,02,19,09,17,12,06,,,,,,3.21,1.15,3.00*01
$GPGSV,4,1,13,02,57,336,19,04,07,039,15,05,51,239,24,06,53,041,30*74
$GPGSV,4,2,13,08,,,20,09,31,065,26,12,34,275,30,13,02,184,*41
$GPGSV,4,3,13,15,,,20,17,30,135,27,19,50,129,28,24,,,16*71
$GPGSV,4,4,13,25,18,303,20*47
$GPGLL,3212.49524,N,11440.61969,E,110917.00,A,A*6B
$GPRMC,110918.00,A,3212.49514,N,11440.61964,E,0.117,,130520,,,A*71
$GPVTG,,T,,M,0.117,N,0.217,K,A*20
$GPGGA,110918.00,3212.49514,N,11440.61964,E,1,07,1.15,31.1,M,-10.5,M,,*47
$GPGSA,A,3,05,02,19,09,17,12,06,,,,,,3.21,1.15,3.00*01
$GPGSV,4,1,14,02,57,336,18,04,07,039,,05,51,239,23,06,53,041,30*71
$GPGSV,4,2,14,08,,,31,09,31,065,26,12,34,275,30,13,02,184,*46
$GPGSV,4,3,14,15,,,33,17,30,135,28,19,50,129,28,24,,,31*7E
$GPGSV,4,4,14,25,18,303,20,50,40,132,34*76
$GPGLL,3212.49514,N,11440.61964,E,110918.00,A,A*6A
$GPRMC,110919.00,A,3212.49521,N,11440.61965,E,0.164,,130520,,,A*73
$GPVTG,,T,,M,0.164,N,0.304,K,A*27
$GPGGA,110919.00,3212.49521,N,11440.61965,E,1,07,1.15,31.2,M,-10.5,M,,*42
$GPGSA,A,3,05,02,19,09,17,12,06,,,,,,3.21,1.15,3.00*01
$GPGSV,4,1,14,02,57,336,18,04,07,039,22,05,51,239,22,06,53,041,30*70
$GPGSV,4,2,14,08,,,21,09,31,065,26,12,34,275,30,13,02,184,*47
$GPGSV,4,3,14,15,,,36,17,30,135,27,19,50,129,28,24,,,22*76
$GPGSV,4,4,14,25,18,303,19,50,40,132,39*71
$GPGLL,3212.49521,N,11440.61965,E,110919.00,A,A*6C
$GPRMC,110920.00,A,3212.49501,N,11440.61960,E,0.179,,130520,,,A*72
$GPVTG,,T,,M,0.179,N,0.331,K,A*2D
$GPGGA,110920.00,3212.49501,N,11440.61960,E,1,06,1.35,31.2,M,-10.5,M,,*4C
$GPGSA,A,3,05,02,19,09,12,06,,,,,,,3.59,1.35,3.33*0A
$GPGSV,4,1,14,02,57,336,18,04,07,039,21,05,51,239,21,06,53,041,30*70
$GPGSV,4,2,14,08,,,31,09,31,064,26,12,34,275,30,13,02,184,*47
$GPGSV,4,3,14,15,,,29,17,30,135,,19,50,129,28,24,,,32*7C
$GPGSV,4,4,14,25,18,303,18,50,40,132,34*7D
$GPGLL,3212.49501,N,11440.61960,E,110920.00,A,A*61
$GPRMC,110921.00,A,3212.49488,N,11440.61951,E,0.182,,130520,,,A*75
$GPVTG,,T,,M,0.182,N,0.338,K,A*20
$GPGGA,110921.00,3212.49488,N,11440.61951,E,1,06,1.35,31.6,M,-10.5,M,,*4B
$GPGSA,A,3,05,02,19,09,12,06,,,,,,,3.59,1.35,3.33*0A
$GPGSV,4,1,14,02,57,336,18,04,07,039,20,05,51,239,21,06,53,041,29*79
$GPGSV,4,2,14,08,,,27,09,31,064,26,12,34,275,30,13,02,184,24*46
$GPGSV,4,3,14,15,,,29,17,30,135,,19,50,129,28,24,,,32*7C
$GPGSV,4,4,14,25,18,303,18,50,40,132,36*7F
$GPGLL,3212.49488,N,11440.61951,E,110921.00,A,A*62
$GPRMC,110922.00,A,3212.49486,N,11440.61946,E,0.053,,130520,,,A*73
$GPVTG,,T,,M,0.053,N,0.098,K,A*24
$GPGGA,110922.00,3212.49486,N,11440.61946,E,1,06,1.35,31.8,M,-10.5,M,,*4E
$GPGSA,A,3,05,02,19,09,12,06,,,,,,,3.59,1.35,3.33*0A
$GPGSV,4,1,15,02,57,336,17,04,07,039,20,05,51,239,21,06,53,041,29*77
$GPGSV,4,2,15,08,,,28,09,31,064,26,12,34,275,29,13,02,184,21*45
$GPGSV,4,3,15,15,,,29,17,30,135,,19,50,129,28,23,,,35*7D
$GPGSV,4,4,15,24,,,31,25,18,303,18,50,40,132,34*78
$GPGLL,3212.49486,N,11440.61946,E,110922.00,A,A*69
$GPRMC,110923.00,A,3212.49459,N,11440.61947,E,0.243,,130520,,,A*72
$GPVTG,,T,,M,0.243,N,0.450,K,A*27
$GPGGA,110923.00,3212.49459,N,11440.61947,E,1,05,1.53,31.2,M,-10.5,M,,*45
$GPGSA,A,3,02,19,09,12,06,,,,,,,,3.74,1.53,3.42*06
$GPGSV,4,1,14,02,57,336,17,04,07,039,21,05,51,239,,06,53,041,32*7E
$GPGSV,4,2,14,08,,,29,09,31,064,26,12,34,275,32,13,02,184,29*47
$GPGSV,4,3,14,15,,,29,17,30,135,27,19,50,129,31,23,,,27*72
$GPGSV,4,4,14,24,,,29,25,18,303,19*47
$GPGLL,3212.49459,N,11440.61947,E,110923.00,A,A*6B
$GPRMC,110924.00,A,3212.49494,N,11440.61978,E,0.740,,130520,,,A*7E
$GPVTG,,T,,M,0.740,N,1.370,K,A*25
$GPGGA,110924.00,3212.49494,N,11440.61978,E,1,06,1.53,28.6,M,-10.5,M,,*40
$GPGSA,A,3,05,02,19,09,12,06,,,,,,,3.74,1.53,3.42*03
$GPGSV,4,1,14,02,57,336,20,04,07,039,21,05,51,239,26,06,53,041,31*7D
$GPGSV,4,2,14,08,,,26,09,31,064,22,12,34,275,31,13,02,184,26*40
$GPGSV,4,3,14,15,,,25,17,30,135,26,19,50,129,23,23,,,24*7F
$GPGSV,4,4,14,24,,,25,25,18,303,19*4B
$GPGLL,3212.49494,N,11440.61978,E,110924.00,A,A*61
$GPRMC,110925.00,A,3212.49481,N,11440.61969,E,0.319,,130520,,,A*73
$GPVTG,,T,,M,0.319,N,0.590,K,A*24
$GPGGA,110925.00,3212.49481,N,11440.61969,E,1,06,1.35,28.7,M,-10.5,M,,*44
$GPGSA,A,3,05,02,19,09,12,06,,,,,,,3.59,1.35,3.33*0A
$GPGSV,4,1,14,02,57,336,22,04,07,039,22,05,51,239,28,06,53,041,30*73
$GPGSV,4,2,14,08,,,23,09,31,064,22,12,34,275,36,13,02,184,*46
$GPGSV,4,3,14,15,,,23,17,30,135,21,19,50,129,23,23,,,23*79
$GPGSV,4,4,14,24,,,23,25,18,303,20*47
$GPGLL,3212.49481,N,11440.61969,E,110925.00,A,A*64
$GPRMC,110926.00,A,3212.49464,N,11440.61953,E,0.128,,130520,,,A*72
$GPVTG,,T,,M,0.128,N,0.237,K,A*2E
$GPGGA,110926.00,3212.49464,N,11440.61953,E,1,06,1.35,29.2,M,-10.5,M,,*41
$GPGSA,A,3,05,02,19,09,12,06,,,,,,,3.59,1.35,3.33*0A
$GPGSV,4,1,14,02,57,336,22,04,07,039,21,05,51,239,28,06,53,041,29*78
$GPGSV,4,2,14,08,,,22,09,31,064,22,12,34,275,35,13,02,184,*44
$GPGSV,4,3,14,15,,,21,17,30,135,17,19,50,129,22,23,,,22*7E
$GPGSV,4,4,14,24,,,22,25,18,303,20*46
$GPGLL,3212.49464,N,11440.61953,E,110926.00,A,A*65
$GPRMC,110927.00,A,3212.49444,N,11440.61935,E,0.306,,130520,,,A*7F
$GPVTG,,T,,M,0.306,N,0.566,K,A*23
$GPGGA,110927.00,3212.49444,N,11440.61935,E,1,06,1.35,29.7,M,-10.5,M,,*47
$GPGSA,A,3,05,02,19,09,12,06,,,,,,,3.59,1.35,3.33*0A
$GPGSV,4,1,14,02,57,336,22,04,07,039,21,05,51,239,27,06,53,041,29*77
$GPGSV,4,2,14,08,,,22,09,31,064,22,12,34,275,33,13,02,184,*42
$GPGSV,4,3,14,15,,,21,17,30,135,15,19,50,129,22,23,,,22*7C
$GPGSV,4,4,14,24,,,21,25,18,303,20*45
$GPGLL,3212.49444,N,11440.61935,E,110927.00,A,A*66
$GPRMC,110928.00,A,3212.49420,N,11440.61922,E,0.132,,130520,,,A*71
$GPVTG,,T,,M,0.132,N,0.245,K,A*20
$GPGGA,110928.00,3212.49420,N,11440.61922,E,1,07,1.35,30.5,M,-10.5,M,,*47
$GPGSA,A,3,05,02,19,09,17,12,06,,,,,,3.59,1.35,3.33*0C
$GPGSV,4,1,14,02,57,336,21,04,07,039,22,05,51,239,27,06,53,041,28*76
$GPGSV,4,2,14,08,,,21,09,31,064,21,12,34,275,33,13,02,184,*42
$GPGSV,4,3,14,15,,,21,17,30,135,15,19,50,129,22,23,,,20*7E
$GPGSV,4,4,14,24,,,21,25,18,303,19*4F
$GPGLL,3212.49420,N,11440.61922,E,110928.00,A,A*6D
$GPRMC,110929.00,A,3212.49452,N,11440.61884,E,0.701,,130520,,,A*7E
$GPVTG,,T,,M,0.701,N,1.298,K,A*27
$GPGGA,110929.00,3212.49452,N,11440.61884,E,1,06,1.35,31.8,M,-10.5,M,,*43
$GPGSA,A,3,05,02,19,09,12,06,,,,,,,3.59,1.35,3.33*0A
$GPGSV,4,1,14,02,57,336,20,04,07,039,22,05,51,239,27,06,53,041,28*77
$GPGSV,4,2,14,08,,,18,09,31,064,22,12,34,275,34,13,02,184,*4C
$GPGSV,4,3,14,15,,,21,17,30,135,,19,50,129,22,23,,,17*7E
$GPGSV,4,4,14,24,,,18,25,18,303,19*45
$GPGLL,3212.49452,N,11440.61884,E,110929.00,A,A*64
$GPRMC,110930.00,A,3212.49440,N,11440.61874,E,0.518,,130520,,,A*70
$GPVTG,,T,,M,0.518,N,0.959,K,A*2A
$GPGGA,110930.00,3212.49440,N,11440.61874,E,1,06,1.35,32.5,M,-10.5,M,,*49
$GPGSA,A,3,05,02,19,09,12,06,,,,,,,3.59,1.35,3.33*0A
$GPGSV,4,1,14,02,57,336,18,04,07,039,22,05,51,239,27,06,53,041,27*73
$GPGSV,4,2,14,08,,,17,09,31,064,23,12,34,275,34,13,02,184,*42
$GPGSV,4,3,14,15,,,19,17,30,135,,19,49,130,23,23,,,13*70
$GPGSV,4,4,14,24,,,15,25,18,303,19*48
$GPGLL,3212.49440,N,11440.61874,E,110930.00,A,A*60
